{
  "generated_at": "2026-01-29T12:53:32.120049",
  "venues": [
    {
      "id": 313,
      "name": "Alfredo's",
      "slug": "alfredos",
      "address_line1": "23-27 Little Underbank",
      "address_line2": null,
      "town": "Stockport",
      "postcode": "SK1 1LA",
      "latitude": null,
      "longitude": null,
      "description": null,
      "venue_type": "bar",
      "capacity": null,
      "website_url": "https://alfredos.social",
      "phone": "0161 625 4866",
      "image_url": null,
      "source_name": "manual"
    },
    {
      "id": 285,
      "name": "BRUK",
      "slug": "bruk",
      "address_line1": "8 Little Underbank",
      "address_line2": null,
      "town": "Stockport",
      "postcode": "SK1 1JT",
      "latitude": 53.4110363,
      "longitude": -2.1577575,
      "description": null,
      "venue_type": null,
      "capacity": null,
      "website_url": null,
      "phone": null,
      "image_url": null,
      "source_name": "skiddle"
    },
    {
      "id": 303,
      "name": "Bohemian Bus Caf\u00e9",
      "slug": "bohemian-bus-caf\u00e9",
      "address_line1": "Calico Lane",
      "address_line2": "Furness Vale",
      "town": "High Peak",
      "postcode": "SK23 7SW",
      "latitude": 53.3521,
      "longitude": -1.99142,
      "description": "Double decker bus cafe, bar & coffee shop in Furness Vale with local produce and veggie/vegan options for brunch & lunch",
      "venue_type": null,
      "capacity": null,
      "website_url": "https://bohemian-bus-caf.square.site/",
      "phone": null,
      "image_url": null,
      "source_name": "manual"
    },
    {
      "id": 320,
      "name": "Buzz Bingo Stockport",
      "slug": "buzz-bingo-stockport",
      "address_line1": "30 Newbridge Lane, Stockport, Cheshire, SK1 2NA",
      "address_line2": null,
      "town": "Stockport",
      "postcode": "SK1 2NA",
      "latitude": 53.4114525,
      "longitude": -2.1505267,
      "description": null,
      "venue_type": null,
      "capacity": null,
      "website_url": null,
      "phone": null,
      "image_url": null,
      "source_name": "skiddle"
    },
    {
      "id": 306,
      "name": "Carlton Club",
      "slug": "carlton-club",
      "address_line1": "113 Carlton Road",
      "address_line2": "Whalley Range",
      "town": "Manchester",
      "postcode": "M16 8BE",
      "latitude": 53.45176,
      "longitude": -2.2633,
      "description": null,
      "venue_type": "community space",
      "capacity": null,
      "website_url": "https://www.carltonclub.org.uk/",
      "phone": null,
      "image_url": null,
      "source_name": "manual"
    },
    {
      "id": 295,
      "name": "Core international",
      "slug": "core-international",
      "address_line1": "26 Middle Hillgate",
      "address_line2": null,
      "town": "Stockport",
      "postcode": "SK1 3AY",
      "latitude": 53.40759,
      "longitude": -2.15494,
      "description": "Coffee & Occasional Bar",
      "venue_type": "bar",
      "capacity": null,
      "website_url": "https://www.instagram.com/thecoreinternational/",
      "phone": null,
      "image_url": null,
      "source_name": "manual"
    },
    {
      "id": 312,
      "name": "Fell Stockport",
      "slug": "fell-stockport",
      "address_line1": "10 St Petersgate",
      "address_line2": null,
      "town": "Stockport",
      "postcode": "SK1 1EN",
      "latitude": null,
      "longitude": null,
      "description": "Craft beer bar and brewery tap room in the heart of Stockport",
      "venue_type": "bar",
      "capacity": null,
      "website_url": "https://www.instagram.com/fellstockport/",
      "phone": null,
      "image_url": null,
      "source_name": "manual"
    },
    {
      "id": 286,
      "name": "Fitzpatricks",
      "slug": "fitzpatricks",
      "address_line1": "20 Railway Road",
      "address_line2": null,
      "town": "Stockport",
      "postcode": "SK1 3SW",
      "latitude": 53.4059418,
      "longitude": -2.1618416,
      "description": null,
      "venue_type": null,
      "capacity": null,
      "website_url": null,
      "phone": null,
      "image_url": null,
      "source_name": "skiddle"
    },
    {
      "id": 318,
      "name": "Fitzpatricks Bar",
      "slug": "fitzpatricks-bar",
      "address_line1": "20 railway rd",
      "address_line2": null,
      "town": "Stockport",
      "postcode": "SK1 3SW",
      "latitude": 53.4059418,
      "longitude": -2.1618416,
      "description": null,
      "venue_type": null,
      "capacity": null,
      "website_url": null,
      "phone": null,
      "image_url": null,
      "source_name": "skiddle"
    },
    {
      "id": 309,
      "name": "Glossop Market Hall",
      "slug": "glossop-market-hall",
      "address_line1": "Market Street",
      "address_line2": null,
      "town": "Glossop",
      "postcode": "SK13 8AP",
      "latitude": 53.44288,
      "longitude": -1.94976,
      "description": "The Grade II listed Town Hall is the central hub of the town, featuring distinctive industrial and civic architecture.\n\nEnhancing the surrounding heritage buildings, the hall sits idyllically opposite Norfolk Square and, in line with the council\u2019s vision, it has been created as a mixed use complex that will bring the community together.\n\nWe are a dog friendly venue.",
      "venue_type": "hall",
      "capacity": null,
      "website_url": "https://www.glossopmarkethall.co.uk/",
      "phone": null,
      "image_url": null,
      "source_name": "manual"
    },
    {
      "id": 290,
      "name": "Grosvenor G Casino Didsbury",
      "slug": "grosvenor-g-casino-didsbury",
      "address_line1": "Parrswood Entertainment Centre",
      "address_line2": null,
      "town": "Didsbury",
      "postcode": "M20 5PG",
      "latitude": 53.408402,
      "longitude": -2.219219,
      "description": null,
      "venue_type": null,
      "capacity": null,
      "website_url": null,
      "phone": null,
      "image_url": null,
      "source_name": "skiddle"
    },
    {
      "id": 310,
      "name": "Hilton House",
      "slug": "hilton-house",
      "address_line1": "Lord Street",
      "address_line2": "Flat D",
      "town": "Stockport",
      "postcode": "SK1 3NA",
      "latitude": 53.40778,
      "longitude": -2.15878,
      "description": null,
      "venue_type": "community space",
      "capacity": null,
      "website_url": null,
      "phone": null,
      "image_url": null,
      "source_name": "manual"
    },
    {
      "id": 280,
      "name": "Holy Diver",
      "slug": "holy-diver",
      "address_line1": "1 Princes Street",
      "address_line2": null,
      "town": "Stockport",
      "postcode": "SK1 1SL",
      "latitude": 53.41117375,
      "longitude": -2.16158853,
      "description": null,
      "venue_type": null,
      "capacity": null,
      "website_url": null,
      "phone": null,
      "image_url": null,
      "source_name": "skiddle"
    },
    {
      "id": 291,
      "name": "LEVENSHULME OLD LIBRARY",
      "slug": "levenshulme-old-library",
      "address_line1": "CROMWELL GROVE",
      "address_line2": null,
      "town": "Manchester",
      "postcode": "M19 3QE",
      "latitude": 53.4450809,
      "longitude": -2.186546,
      "description": null,
      "venue_type": null,
      "capacity": null,
      "website_url": null,
      "phone": null,
      "image_url": null,
      "source_name": "skiddle"
    },
    {
      "id": 311,
      "name": "Levenshulme Old Library",
      "slug": "levenshulme-old-library-1",
      "address_line1": "Cromwell Grove",
      "address_line2": "Levenshulme",
      "town": "Manchester",
      "postcode": "M19 3QE",
      "latitude": 53.44578,
      "longitude": -2.18578,
      "description": null,
      "venue_type": "art centre",
      "capacity": null,
      "website_url": "https://levenshulmeoldlibrary.org.uk/",
      "phone": null,
      "image_url": null,
      "source_name": "manual"
    },
    {
      "id": 316,
      "name": "Market Hall",
      "slug": "market-hall",
      "address_line1": "Market Place",
      "address_line2": null,
      "town": "Stockport",
      "postcode": "SK1 1UN",
      "latitude": null,
      "longitude": null,
      "description": "Stockport Indoor Market - historic market hall with food traders and events",
      "venue_type": "other",
      "capacity": null,
      "website_url": "https://thestockportmarket.co.uk",
      "phone": "0161 474 2500",
      "image_url": null,
      "source_name": "manual"
    },
    {
      "id": 324,
      "name": "Odioba",
      "slug": "odioba",
      "address_line1": "26 Lower Hillgate",
      "address_line2": null,
      "town": "Stockport",
      "postcode": "SK1 1JE",
      "latitude": 53.4088,
      "longitude": -2.1584,
      "description": null,
      "venue_type": null,
      "capacity": null,
      "website_url": null,
      "phone": null,
      "image_url": null,
      "source_name": "odioba"
    },
    {
      "id": 287,
      "name": "OverDraught",
      "slug": "overdraught",
      "address_line1": "855 Stockport Rd,",
      "address_line2": null,
      "town": "Manchester",
      "postcode": "M19 3PW",
      "latitude": 53.444015,
      "longitude": -2.1914145,
      "description": null,
      "venue_type": null,
      "capacity": null,
      "website_url": null,
      "phone": null,
      "image_url": null,
      "source_name": "skiddle"
    },
    {
      "id": 283,
      "name": "Plough On The Moor",
      "slug": "plough-on-the-moor",
      "address_line1": "82 Heaton Moor Rd,, United Kingdom",
      "address_line2": null,
      "town": "Stockport",
      "postcode": "SK4 4NZ",
      "latitude": 53.4234108,
      "longitude": -2.1833331,
      "description": null,
      "venue_type": null,
      "capacity": null,
      "website_url": null,
      "phone": null,
      "image_url": null,
      "source_name": "skiddle"
    },
    {
      "id": 300,
      "name": "Rare Mags",
      "slug": "rare-mags",
      "address_line1": "5 Lower Hillgate",
      "address_line2": null,
      "town": "Stockport",
      "postcode": "SK1 1JQ",
      "latitude": 53.41091,
      "longitude": -2.15622,
      "description": "Magazines|Books|Coffee|Stationery",
      "venue_type": "shop",
      "capacity": null,
      "website_url": "https://www.instagram.com/rare_mags/",
      "phone": null,
      "image_url": null,
      "source_name": "manual"
    },
    {
      "id": 294,
      "name": "Red Bull",
      "slug": "red-bull",
      "address_line1": "14 Middle Hillgate",
      "address_line2": null,
      "town": "Stockport",
      "postcode": "SK1 3AY",
      "latitude": 53.40762,
      "longitude": -2.15533,
      "description": "A Country Pub in the Heart of SK1\nDog friendly | Vegan friendly | Cask ales served with a smile \ud83c\udf7a\ud83d\ude42",
      "venue_type": "pub",
      "capacity": null,
      "website_url": "www.robinsonsbrewery.com/redbullstockport",
      "phone": null,
      "image_url": null,
      "source_name": "manual"
    },
    {
      "id": 314,
      "name": "Reddish Ale",
      "slug": "reddish-ale",
      "address_line1": "14 Broadstone Rd",
      "address_line2": null,
      "town": "Reddish, Stockport",
      "postcode": "SK5 7AE",
      "latitude": null,
      "longitude": null,
      "description": "Craft beer pub in Reddish",
      "venue_type": "pub",
      "capacity": null,
      "website_url": "https://reddishale.com",
      "phone": null,
      "image_url": null,
      "source_name": "manual"
    },
    {
      "id": 305,
      "name": "Rockafellas",
      "slug": "rockafellas",
      "address_line1": "11 Tiviot Dale",
      "address_line2": null,
      "town": "Stockport",
      "postcode": "SK1 1TA",
      "latitude": 53.41315,
      "longitude": -2.15913,
      "description": null,
      "venue_type": "bar",
      "capacity": null,
      "website_url": null,
      "phone": null,
      "image_url": null,
      "source_name": "manual"
    },
    {
      "id": 282,
      "name": "Royal Nawaab Pyramid",
      "slug": "royal-nawaab-pyramid",
      "address_line1": "The Valley of Kings",
      "address_line2": null,
      "town": "Stockport",
      "postcode": "SK2 2JU",
      "latitude": 53.4106316,
      "longitude": -2.1575332,
      "description": null,
      "venue_type": null,
      "capacity": null,
      "website_url": null,
      "phone": null,
      "image_url": null,
      "source_name": "skiddle"
    },
    {
      "id": 302,
      "name": "SJS Smith Jewellery",
      "slug": "sjs-smith-jewellery",
      "address_line1": "20 Little Underbank",
      "address_line2": "Flat D",
      "town": "Stockport",
      "postcode": "SK1 1JT",
      "latitude": 53.41095,
      "longitude": -2.15716,
      "description": null,
      "venue_type": "shop",
      "capacity": null,
      "website_url": "https://sjssmithjewellery.com/",
      "phone": "07729594632",
      "image_url": null,
      "source_name": "manual"
    },
    {
      "id": 307,
      "name": "Shaw Road",
      "slug": "shaw-road",
      "address_line1": "Shaw Road",
      "address_line2": null,
      "town": "Stockport",
      "postcode": "SK4 4AG",
      "latitude": 53.42346,
      "longitude": -2.18595,
      "description": null,
      "venue_type": null,
      "capacity": null,
      "website_url": null,
      "phone": null,
      "image_url": null,
      "source_name": "manual"
    },
    {
      "id": 279,
      "name": "Stockport Garrick Theatre",
      "slug": "stockport-garrick-theatre",
      "address_line1": "Exchange Street",
      "address_line2": null,
      "town": "Stockport",
      "postcode": "SK3 0EJ",
      "latitude": 53.4006391,
      "longitude": -2.1697116,
      "description": null,
      "venue_type": null,
      "capacity": null,
      "website_url": null,
      "phone": null,
      "image_url": null,
      "source_name": "skiddle"
    },
    {
      "id": 298,
      "name": "Stockport Indoor Market",
      "slug": "stockport-indoor-market",
      "address_line1": "Market Place",
      "address_line2": null,
      "town": "Stockport",
      "postcode": "SK1 1YJ",
      "latitude": 53.41114,
      "longitude": -2.15613,
      "description": "Stockport Indoor Market",
      "venue_type": "market",
      "capacity": null,
      "website_url": null,
      "phone": null,
      "image_url": null,
      "source_name": "manual"
    },
    {
      "id": 317,
      "name": "Stockport Jewellery School",
      "slug": "stockport-jewellery-school",
      "address_line1": "20 Little Underbank",
      "address_line2": null,
      "town": "Stockport",
      "postcode": "SK1 1JT",
      "latitude": null,
      "longitude": null,
      "description": "SJS Smith Jewellery - jewellery making workshops and classes for beginners",
      "venue_type": "other",
      "capacity": null,
      "website_url": null,
      "phone": null,
      "image_url": null,
      "source_name": "manual"
    },
    {
      "id": 292,
      "name": "Stockport Market Hall",
      "slug": "stockport-market-hall",
      "address_line1": "Market Place",
      "address_line2": null,
      "town": "Stockport",
      "postcode": "SK1 1EU",
      "latitude": 53.4083,
      "longitude": -2.1574,
      "description": "Historic market hall",
      "venue_type": "market",
      "capacity": null,
      "website_url": null,
      "phone": null,
      "image_url": null,
      "source_name": "manual"
    },
    {
      "id": 281,
      "name": "Stockport Masonic Guildhall",
      "slug": "stockport-masonic-guildhall",
      "address_line1": "169 Wellington Road South",
      "address_line2": null,
      "town": "Stockport",
      "postcode": "SK1 3UA",
      "latitude": 53.4023099,
      "longitude": -2.1563076,
      "description": null,
      "venue_type": null,
      "capacity": null,
      "website_url": null,
      "phone": null,
      "image_url": null,
      "source_name": "skiddle"
    },
    {
      "id": 308,
      "name": "Stockport Produce Hall",
      "slug": "stockport-produce-hall",
      "address_line1": "24A Market Place",
      "address_line2": null,
      "town": "Stockport",
      "postcode": "SK1 1EU",
      "latitude": 53.41177,
      "longitude": -2.15732,
      "description": "Through its 160+ year life, the Produce Hall has hosted fish and meat markets, cheese stalls, sweet shops and even a public library.\n\nSince the beginning our main focus has been to preserve Stockport\u2019s history of a community market town for the people.\n\nOur wrap around kitchens serve up fresh, delicious food from light bites to entr\u00e9es, from British classics to Spanish delicacies. Featuring independent powerhouses: Thief Street, Kambuja and Mamma G\u2019s Soul Food.\n\nThe Produce Hall is a showcase of great food, drink and entertainment, whether you are coming with family, friends or to host a work meeting, our social space is where the people and community are quite literally at the centre of what we do.",
      "venue_type": "hall",
      "capacity": null,
      "website_url": "https://theproducehall.com/",
      "phone": null,
      "image_url": null,
      "source_name": "manual"
    },
    {
      "id": 319,
      "name": "Stockport Town Hall",
      "slug": "stockport-town-hall",
      "address_line1": "Edward Street",
      "address_line2": null,
      "town": "Stockport",
      "postcode": "SK1 3XE",
      "latitude": 53.4059744,
      "longitude": -2.1584871,
      "description": null,
      "venue_type": null,
      "capacity": null,
      "website_url": null,
      "phone": null,
      "image_url": null,
      "source_name": "skiddle"
    },
    {
      "id": 301,
      "name": "Stockroom",
      "slug": "stockroom",
      "address_line1": "Merseyway",
      "address_line2": null,
      "town": "Stockport",
      "postcode": "SK1 1PW1",
      "latitude": 53.41145,
      "longitude": -2.15993,
      "description": null,
      "venue_type": "community space",
      "capacity": null,
      "website_url": "https://www.stockrm.org/",
      "phone": null,
      "image_url": null,
      "source_name": "manual"
    },
    {
      "id": 288,
      "name": "The Barlow RC High School ",
      "slug": "the-barlow-rc-high-school",
      "address_line1": "Parrs Wood Road, East Didsbury",
      "address_line2": null,
      "town": "Manchester",
      "postcode": "M20 6BX",
      "latitude": 53.4154315,
      "longitude": -2.2200723,
      "description": null,
      "venue_type": null,
      "capacity": null,
      "website_url": null,
      "phone": null,
      "image_url": null,
      "source_name": "skiddle"
    },
    {
      "id": 296,
      "name": "The Blossoms",
      "slug": "the-blossoms",
      "address_line1": "2 Buxton Road",
      "address_line2": null,
      "town": "Stockport",
      "postcode": "SK2 6NU",
      "latitude": 53.3989,
      "longitude": -2.15252,
      "description": "Award-winning community pub",
      "venue_type": "pub",
      "capacity": null,
      "website_url": null,
      "phone": null,
      "image_url": null,
      "source_name": "manual"
    },
    {
      "id": 315,
      "name": "The Produce Hall",
      "slug": "the-produce-hall",
      "address_line1": "24A Market Place",
      "address_line2": null,
      "town": "Stockport",
      "postcode": "SK1 1EU",
      "latitude": null,
      "longitude": null,
      "description": "Food hall and event space in Stockport Market",
      "venue_type": "other",
      "capacity": null,
      "website_url": null,
      "phone": null,
      "image_url": null,
      "source_name": "manual"
    },
    {
      "id": 323,
      "name": "The Royal Oak Stockport",
      "slug": "the-royal-oak-stockport",
      "address_line1": "124 Castle Street",
      "address_line2": null,
      "town": "Stockport",
      "postcode": "SK3 9AL",
      "latitude": 53.4014035,
      "longitude": -2.1693712,
      "description": null,
      "venue_type": null,
      "capacity": null,
      "website_url": null,
      "phone": null,
      "image_url": null,
      "source_name": "skiddle"
    },
    {
      "id": 321,
      "name": "The Spinning Top",
      "slug": "the-spinning-top",
      "address_line1": "20 Wellington Road South",
      "address_line2": null,
      "town": "Stockport",
      "postcode": "SK4 1AA",
      "latitude": 53.408213,
      "longitude": -2.161355,
      "description": null,
      "venue_type": null,
      "capacity": null,
      "website_url": null,
      "phone": null,
      "image_url": null,
      "source_name": "skiddle"
    },
    {
      "id": 289,
      "name": "The Talleyrand",
      "slug": "the-talleyrand",
      "address_line1": "1030 Stockport Road",
      "address_line2": null,
      "town": "Manchester",
      "postcode": "M19 3WX",
      "latitude": 53.4413062,
      "longitude": -2.1893087,
      "description": null,
      "venue_type": null,
      "capacity": null,
      "website_url": null,
      "phone": null,
      "image_url": null,
      "source_name": "skiddle"
    },
    {
      "id": 284,
      "name": "The Underbank",
      "slug": "the-underbank",
      "address_line1": "27 Great Underbank",
      "address_line2": null,
      "town": "Stockport",
      "postcode": "SK1 1LN",
      "latitude": 53.4112967,
      "longitude": -2.1580345,
      "description": null,
      "venue_type": null,
      "capacity": null,
      "website_url": null,
      "phone": null,
      "image_url": null,
      "source_name": "skiddle"
    },
    {
      "id": 293,
      "name": "Thread",
      "slug": "thread",
      "address_line1": "22 Market Place",
      "address_line2": null,
      "town": "Stockport",
      "postcode": "SK1 1EU",
      "latitude": 53.41168,
      "longitude": -2.1574,
      "description": null,
      "venue_type": "bar",
      "capacity": 100,
      "website_url": null,
      "phone": "07729594632",
      "image_url": null,
      "source_name": "manual"
    },
    {
      "id": 304,
      "name": "Village Hotel Cheadle",
      "slug": "village-hotel-cheadle",
      "address_line1": "Cheadle Rd, Cheadle Hulme, Cheadle",
      "address_line2": null,
      "town": "Cheadle",
      "postcode": "SK8 1HW",
      "latitude": 53.3863803,
      "longitude": -2.2110133,
      "description": null,
      "venue_type": null,
      "capacity": null,
      "website_url": null,
      "phone": null,
      "image_url": null,
      "source_name": "skiddle"
    },
    {
      "id": 299,
      "name": "What If?",
      "slug": "what-if",
      "address_line1": "Hardman Street",
      "address_line2": null,
      "town": "Stockport",
      "postcode": "SK3 0BJ",
      "latitude": 53.40719,
      "longitude": -2.16927,
      "description": "An ideas collective/new community space in the Hollywood Park area of Edgeley in Stockport.",
      "venue_type": "community space",
      "capacity": null,
      "website_url": "https://www.instagram.com/whatif_stockport/",
      "phone": null,
      "image_url": null,
      "source_name": "manual"
    },
    {
      "id": 297,
      "name": "Y\u00f3n Orang\u00e9",
      "slug": "y\u00f3n-orang\u00e9",
      "address_line1": "57 Great Underbank",
      "address_line2": null,
      "town": "Stockport",
      "postcode": "SK1 1NE",
      "latitude": 53.41091,
      "longitude": -2.15896,
      "description": "a little soft space led by a couple for slow hearts and living.\ncoffee, matcha, herbal tea and homey bakes.",
      "venue_type": "cafe",
      "capacity": null,
      "website_url": "https://www.instagram.com/by___yon___orange/",
      "phone": null,
      "image_url": null,
      "source_name": "manual"
    },
    {
      "id": 322,
      "name": "Zero Gravity Pole Studio",
      "slug": "zero-gravity-pole-studio",
      "address_line1": "Unit B2",
      "address_line2": null,
      "town": "Stockport",
      "postcode": "SK6 2BP",
      "latitude": 53.4137268,
      "longitude": -2.1336705,
      "description": null,
      "venue_type": null,
      "capacity": null,
      "website_url": null,
      "phone": null,
      "image_url": null,
      "source_name": "skiddle"
    }
  ],
  "total": 46
}